{
  "features": [
    {
      "geometry": {
        "coordinates": [
          -39.144973799999995,
          -7.2438101999999995
        ],
        "type": "Point"
      },
      "properties": {
        "name": "Casa"
      },
      "type": "Feature"
    },
    {
      "geometry": {
        "coordinates": [
          -40.5030961,
          -9.389083
        ],
        "type": "Point"
      },
      "properties": {
        "address": "Petrolina, PE, Brasil",
        "name": "Trabalho"
      },
      "type": "Feature"
    },
    {
      "geometry": {
        "coordinates": [
          -35.552221599999996,
          -8.1957215
        ],
        "type": "Point"
      },
      "properties": {
        "address": "Fundação de Saúde Amaury de Medeiros - R. Quinze de Novembro, 10 - Quinze de Novembro, Gravatá - PE, 55642-550, Brasil",
        "name": "moto eletica gravata e baterias"
      },
      "type": "Feature"
    },
    {
      "geometry": {
        "coordinates": [
          -35.939143,
          -8.2784555
        ],
        "type": "Point"
      },
      "properties": {
        "address": "R. Guiomar Oliveira Silva, 96 - Rendeiras, Caruaru - PE, 55022-100, Brasil",
        "name": "122070"
      },
      "type": "Feature"
    },
    {
      "geometry": {
        "coordinates": [
          -35.9405023,
          -8.2843559
        ],
        "type": "Point"
      },
      "properties": {
        "address": "R. Mte. Galdino, 440 - Dep. Jose Antonio Liberato, Caruaru - PE, 55027-220, Brasil",
        "name": "142363"
      },
      "type": "Feature"
    },
    {
      "geometry": {
        "coordinates": [
          -35.231266999999995,
          -7.598019
        ],
        "type": "Point"
      },
      "properties": {
        "address": "R. Joao Hilario Pereira, 240 - Alianca, Aliança - PE, 55890-000, Brasil",
        "name": "137840 N165 Cladio"
      },
      "type": "Feature"
    },
    {
      "geometry": {
        "coordinates": [
          -35.23424,
          -7.591113999999999
        ],
        "type": "Point"
      },
      "properties": {
        "name": "138286"
      },
      "type": "Feature"
    },
    {
      "geometry": {
        "coordinates": [
          -35.307454,
          -7.518679
        ],
        "type": "Point"
      },
      "properties": {
        "address": "R. Antônio Ricardo, 135 - Mocós, Timbaúba - PE, 55870-000, Brasil",
        "name": "133992 f142 vanderlei"
      },
      "type": "Feature"
    },
    {
      "geometry": {
        "coordinates": [
          -35.4569131,
          -7.8881410999999995
        ],
        "type": "Point"
      },
      "properties": {
        "address": "Donna cakes - R. Antonio José Da Silva - Santa Teresinha, Limoeiro - PE, 55700-000, Brasil",
        "name": "142104 n396 dona bel"
      },
      "type": "Feature"
    },
    {
      "geometry": {
        "coordinates": [
          -35.459157999999995,
          -8.3704349
        ],
        "type": "Point"
      },
      "properties": {
        "address": "R. Bela Vista, 55 - Bela Vista, Amaraji - PE, 55515-000, Brasil",
        "name": "134536"
      },
      "type": "Feature"
    },
    {
      "geometry": {
        "coordinates": [
          -35.944631699999995,
          -8.4587247
        ],
        "type": "Point"
      },
      "properties": {
        "name": "129442"
      },
      "type": "Feature"
    },
    {
      "geometry": {
        "coordinates": [
          -35.4913163,
          -7.5908536
        ],
        "type": "Point"
      },
      "properties": {
        "address": "R. Padre Germiniano, 51, São Vicente Férrer - PE, 55860-000, Brasil",
        "name": "136937 n51 jessica"
      },
      "type": "Feature"
    },
    {
      "geometry": {
        "coordinates": [
          -35.279581,
          -7.934298
        ],
        "type": "Point"
      },
      "properties": {
        "name": "114382 N bartolomeu"
      },
      "type": "Feature"
    },
    {
      "geometry": {
        "coordinates": [
          -35.584090599999996,
          -7.9806984
        ],
        "type": "Point"
      },
      "properties": {
        "address": "R. Juviniano F. Santana, 125, Passira - PE, 55650-000, Brasil",
        "name": "143757"
      },
      "type": "Feature"
    },
    {
      "geometry": {
        "coordinates": [
          -39.3021294,
          -7.2351348
        ],
        "type": "Point"
      },
      "properties": {
        "address": "Rua Esmeraldo Cardoso Lobo, 607-527 - José Geraldo da Cruz, Juazeiro do Norte - CE, 63033-250, Brasil",
        "name": "l11 lucas n583"
      },
      "type": "Feature"
    },
    {
      "geometry": {
        "coordinates": [
          -35.7652242,
          -7.848922099999999
        ],
        "type": "Point"
      },
      "properties": {
        "address": "R. Tiradentes, 170 - Lot. Bom Morar, Surubim - PE, 55750-000, Brasil",
        "name": "136738 n170 pamela"
      },
      "type": "Feature"
    },
    {
      "geometry": {
        "coordinates": [
          -35.4831481,
          -7.5900285
        ],
        "type": "Point"
      },
      "properties": {
        "address": "Ginásio Fernando Regis - R. Maria Teresa Regis, 19, São Vicente Férrer - PE, 55860-000, Brasil",
        "name": "135556 adriana"
      },
      "type": "Feature"
    },
    {
      "geometry": {
        "coordinates": [
          -35.9767297,
          -8.295195399999999
        ],
        "type": "Point"
      },
      "properties": {
        "name": "139469"
      },
      "type": "Feature"
    },
    {
      "geometry": {
        "coordinates": [
          -35.390538899999996,
          -7.9491762999999995
        ],
        "type": "Point"
      },
      "properties": {
        "address": "R. Severino Corrêa de Vasconcelos, 5, Feira Nova - PE, 55715-000, Brasil",
        "name": "128666 N6 Manuel"
      },
      "type": "Feature"
    },
    {
      "geometry": {
        "coordinates": [
          -35.253498199999996,
          -7.844122499999999
        ],
        "type": "Point"
      },
      "properties": {
        "name": "141943 trabalho"
      },
      "type": "Feature"
    },
    {
      "geometry": {
        "coordinates": [
          -35.9265097,
          -8.2763777
        ],
        "type": "Point"
      },
      "properties": {
        "name": "126352"
      },
      "type": "Feature"
    },
    {
      "geometry": {
        "coordinates": [
          -35.7774468,
          -8.101507699999999
        ],
        "type": "Point"
      },
      "properties": {
        "address": "Provedor Nivea Net - R. João Paulo Barbosa, 400, Cumaru - PE, 55655-000, Brasil",
        "name": "144209"
      },
      "type": "Feature"
    },
    {
      "geometry": {
        "coordinates": [
          -34.890567,
          -7.6004697
        ],
        "type": "Point"
      },
      "properties": {
        "address": "Brasil",
        "name": "139860"
      },
      "type": "Feature"
    },
    {
      "geometry": {
        "coordinates": [
          -35.4003689,
          -8.1492388
        ],
        "type": "Point"
      },
      "properties": {
        "address": "R. Treze, Pombos - PE, 55630-000, Brasil",
        "name": "134862"
      },
      "type": "Feature"
    },
    {
      "geometry": {
        "coordinates": [
          -39.312287,
          -7.226051
        ],
        "type": "Point"
      },
      "properties": {
        "name": "l23 cicero gredison"
      },
      "type": "Feature"
    },
    {
      "geometry": {
        "coordinates": [
          -35.571045,
          -8.194780999999999
        ],
        "type": "Point"
      },
      "properties": {
        "name": "118615 simone v105"
      },
      "type": "Feature"
    },
    {
      "geometry": {
        "coordinates": [
          -35.9392776,
          -8.2863853
        ],
        "type": "Point"
      },
      "properties": {
        "address": "R. Talles de Milleto, 146 - Indianópolis, Caruaru - PE, Brasil",
        "name": "128081"
      },
      "type": "Feature"
    },
    {
      "geometry": {
        "coordinates": [
          0.0,
          0.0
        ],
        "type": "Point"
      },
      "properties": {
        "address": "R. Seis, 433-425 - Cruzeiro, Gravatá - PE, Brasil",
        "name": "144186"
      },
      "type": "Feature"
    },
    {
      "geometry": {
        "coordinates": [
          -35.577569499999996,
          -7.974535899999999
        ],
        "type": "Point"
      },
      "properties": {
        "address": "Passira - PE, Brasil",
        "name": "140696"
      },
      "type": "Feature"
    },
    {
      "geometry": {
        "coordinates": [
          -35.979279999999996,
          -8.302022
        ],
        "type": "Point"
      },
      "properties": {
        "address": "R. Costa Carvalho, 155 - Petrópolis, Caruaru - PE, 55030-370, Brasil",
        "name": "123270"
      },
      "type": "Feature"
    },
    {
      "geometry": {
        "coordinates": [
          -35.299079,
          -7.936678799999999
        ],
        "type": "Point"
      },
      "properties": {
        "address": "Brasil",
        "name": "137025 N442 Rodrigo"
      },
      "type": "Feature"
    },
    {
      "geometry": {
        "coordinates": [
          -39.2905586,
          -7.2519684
        ],
        "type": "Point"
      },
      "properties": {
        "address": "Chacara o Duque - R. Letícia Leite, 3321 - Campo Alegre, Juazeiro do Norte - CE, 63040-410, Brasil",
        "name": "p74 lio mulher/joao oliveira n105"
      },
      "type": "Feature"
    },
    {
      "geometry": {
        "coordinates": [
          -35.968908899999995,
          -8.298778
        ],
        "type": "Point"
      },
      "properties": {
        "address": "Tv. Buarque Lima Sg, 239 - Vassoural, Caruaru - PE, 55030-052, Brasil",
        "name": "136088"
      },
      "type": "Feature"
    },
    {
      "geometry": {
        "coordinates": [
          -35.7472673,
          -8.2350253
        ],
        "type": "Point"
      },
      "properties": {
        "address": "R. Dr. José Maria, 230 - São Pedro, Bezerros - PE, 55660-000, Brasil",
        "name": "129733"
      },
      "type": "Feature"
    },
    {
      "geometry": {
        "coordinates": [
          -35.102013899999996,
          -7.663831
        ],
        "type": "Point"
      },
      "properties": {
        "address": "Itaquitinga - PE, Brasil",
        "name": "131684"
      },
      "type": "Feature"
    },
    {
      "geometry": {
        "coordinates": [
          -39.3868041,
          -7.252759999999999
        ],
        "type": "Point"
      },
      "properties": {
        "name": "d25 roseline n11 f12"
      },
      "type": "Feature"
    },
    {
      "geometry": {
        "coordinates": [
          -35.557986,
          -7.9604159999999995
        ],
        "type": "Point"
      },
      "properties": {
        "name": "140688"
      },
      "type": "Feature"
    },
    {
      "geometry": {
        "coordinates": [
          -34.897769,
          -7.606930999999999
        ],
        "type": "Point"
      },
      "properties": {
        "name": "140917"
      },
      "type": "Feature"
    },
    {
      "geometry": {
        "coordinates": [
          -35.0871285,
          -8.1170767
        ],
        "type": "Point"
      },
      "properties": {
        "address": "R. Mal. Costa e Silva, 267-18 - Alto da Maternidade, Moreno - PE, 53690-000, Brasil",
        "name": "119086"
      },
      "type": "Feature"
    },
    {
      "geometry": {
        "coordinates": [
          -35.175641399999996,
          -7.902369299999999
        ],
        "type": "Point"
      },
      "properties": {
        "name": "141560 Foi"
      },
      "type": "Feature"
    },
    {
      "geometry": {
        "coordinates": [
          -39.3141945,
          -7.2353679
        ],
        "type": "Point"
      },
      "properties": {
        "address": "Av. da Chesf, 950-996 - Romeirao, Juazeiro do Norte - CE, Brasil",
        "name": "L5 Casa rosimare ferreira N1077"
      },
      "type": "Feature"
    },
    {
      "geometry": {
        "coordinates": [
          -35.3214255,
          -7.6561708
        ],
        "type": "Point"
      },
      "properties": {
        "address": "R. Treze de Maio, 25-205, Vicência - PE, 55850-000, Brasil",
        "name": "101080"
      },
      "type": "Feature"
    },
    {
      "geometry": {
        "coordinates": [
          -39.309244899999996,
          -7.2154256
        ],
        "type": "Point"
      },
      "properties": {
        "address": "R. Primeiro de Maio, 444 - Pio XII, Juazeiro do Norte - CE, 63020-090, Brasil",
        "name": "l72 natalia lima n448 viz444"
      },
      "type": "Feature"
    },
    {
      "geometry": {
        "coordinates": [
          -35.324102499999995,
          -7.661191799999999
        ],
        "type": "Point"
      },
      "properties": {
        "address": "R. Maria Amelia Veiga, 13 - Centro, Vicência - PE, 55850-000, Brasil",
        "name": "133455 n58 m adriana"
      },
      "type": "Feature"
    },
    {
      "geometry": {
        "coordinates": [
          -35.4382199,
          -7.8887284
        ],
        "type": "Point"
      },
      "properties": {
        "name": "144610"
      },
      "type": "Feature"
    },
    {
      "geometry": {
        "coordinates": [
          -35.2312856,
          -7.7505843
        ],
        "type": "Point"
      },
      "properties": {
        "address": "R. Maria Rita Viêira de Azevedo, 62, Nazaré da Mata - PE, 55800-000, Brasil",
        "name": "128787"
      },
      "type": "Feature"
    },
    {
      "geometry": {
        "coordinates": [
          -39.3311019,
          -7.1813888
        ],
        "type": "Point"
      },
      "properties": {
        "address": "Caminho do Horto, 1864 - Horto, Juazeiro do Norte - CE, Brasil",
        "name": "z2 ana clara 1861 f1864"
      },
      "type": "Feature"
    },
    {
      "geometry": {
        "coordinates": [
          -39.387254999999996,
          -7.2525894
        ],
        "type": "Point"
      },
      "properties": {
        "name": "d27 geraldo gomes v5 casa verde"
      },
      "type": "Feature"
    },
    {
      "geometry": {
        "coordinates": [
          -35.5081723,
          -7.6858609
        ],
        "type": "Point"
      },
      "properties": {
        "name": "137534 c da amiga"
      },
      "type": "Feature"
    },
    {
      "geometry": {
        "coordinates": [
          -35.764034599999995,
          -8.3624566
        ],
        "type": "Point"
      },
      "properties": {
        "address": "R. Oscar Eugênio, 6, Camocim de São Félix - PE, 55665-000, Brasil",
        "name": "128285"
      },
      "type": "Feature"
    },
    {
      "geometry": {
        "coordinates": [
          -35.1760176,
          -7.9002004999999995
        ],
        "type": "Point"
      },
      "properties": {
        "address": "R. do Cajá, 16, Paudalho - PE, 55825-000, Brasil",
        "name": "141574"
      },
      "type": "Feature"
    },
    {
      "geometry": {
        "coordinates": [
          -35.102571499999996,
          -8.037171299999999
        ],
        "type": "Point"
      },
      "properties": {
        "address": "R. Ercina Lapenda, 40 - Nossa Sra. Da Luz, São Lourenço da Mata - PE, 54749-000, Brasil",
        "name": "118119"
      },
      "type": "Feature"
    },
    {
      "geometry": {
        "coordinates": [
          -35.590745999999996,
          -7.866788
        ],
        "type": "Point"
      },
      "properties": {
        "name": "130337"
      },
      "type": "Feature"
    },
    {
      "geometry": {
        "coordinates": [
          -35.735752999999995,
          -8.475325999999999
        ],
        "type": "Point"
      },
      "properties": {
        "address": "R. Dr. Jose Carlos Dubeux, 513 - Bonito, PE, 55680-000, Brasil",
        "name": "128129"
      },
      "type": "Feature"
    },
    {
      "geometry": {
        "coordinates": [
          -35.9293042,
          -8.2760064
        ],
        "type": "Point"
      },
      "properties": {
        "address": "R. Adalgiza Freire da Silva, 315 - Rendeiras, Caruaru - PE, 55022-640, Brasil",
        "name": "136859"
      },
      "type": "Feature"
    },
    {
      "geometry": {
        "coordinates": [
          -39.378329799999996,
          -7.242917299999999
        ],
        "type": "Point"
      },
      "properties": {
        "address": "R. 10, Crato - CE, Brasil",
        "name": "c11 gracinha lopes v39"
      },
      "type": "Feature"
    },
    {
      "geometry": {
        "coordinates": [
          -35.570327899999995,
          -8.203301
        ],
        "type": "Point"
      },
      "properties": {
        "address": "R. Nicolau Correia Teixeira, 45 - Centro, Gravatá - PE, 55641-130, Brasil",
        "name": "123849"
      },
      "type": "Feature"
    },
    {
      "geometry": {
        "coordinates": [
          -35.705518,
          -8.011516
        ],
        "type": "Point"
      },
      "properties": {
        "address": "R. Projetada, 36 - Cumaru, PE, 55655-000, Brasil",
        "name": "134910"
      },
      "type": "Feature"
    },
    {
      "geometry": {
        "coordinates": [
          -35.105294,
          -8.122629
        ],
        "type": "Point"
      },
      "properties": {
        "address": "Clínica Global Santé Fisioterapia - Rua Adauto Barbosa de Souza, Nº 172 - B - Alto da Liberdade, Moreno - PE, 54800-000, Brasil",
        "name": "143684"
      },
      "type": "Feature"
    },
    {
      "geometry": {
        "coordinates": [
          -35.1005,
          -8.0389815
        ],
        "type": "Point"
      },
      "properties": {
        "address": "R. Ercina Lapenda, 134, São Lourenço da Mata - PE, Brasil",
        "name": "116794"
      },
      "type": "Feature"
    },
    {
      "geometry": {
        "coordinates": [
          -35.567661799999996,
          -8.2037391
        ],
        "type": "Point"
      },
      "properties": {
        "address": "HYDRA CONTABILIDADE - R. Santo Amaro, 60 - Andar 1, Sala 8 - Centro, Gravatá - PE, 55641-010, Brasil",
        "name": "121668 neidiza n72"
      },
      "type": "Feature"
    },
    {
      "geometry": {
        "coordinates": [
          -35.860766999999996,
          -8.140982
        ],
        "type": "Point"
      },
      "properties": {
        "name": "122067"
      },
      "type": "Feature"
    },
    {
      "geometry": {
        "coordinates": [
          -35.9262404,
          -8.2783652
        ],
        "type": "Point"
      },
      "properties": {
        "address": "R. Prof. Augusto Tabosa, 53 - Rendeiras, Caruaru - PE, 55006-020, Brasil",
        "name": "128435"
      },
      "type": "Feature"
    },
    {
      "geometry": {
        "coordinates": [
          -35.1033508,
          -7.671488999999999
        ],
        "type": "Point"
      },
      "properties": {
        "address": "Bar do coia - R. José Barbosa de Oliveira, Itaquitinga - PE, 55950-000, Brasil",
        "name": "116644"
      },
      "type": "Feature"
    },
    {
      "geometry": {
        "coordinates": [
          -35.857529,
          -8.129881
        ],
        "type": "Point"
      },
      "properties": {
        "name": "138109"
      },
      "type": "Feature"
    },
    {
      "geometry": {
        "coordinates": [
          -39.401680899999995,
          -7.230224
        ],
        "type": "Point"
      },
      "properties": {
        "address": "Snake Coldres - Tv. Orós - São Miguel, Crato - CE, 63122-395, Brasil",
        "name": "e10 daniela patricia n"
      },
      "type": "Feature"
    },
    {
      "geometry": {
        "coordinates": [
          -35.0844283,
          -7.7864556
        ],
        "type": "Point"
      },
      "properties": {
        "address": "R. Trinta e Um de Março, 5 - Centro, Araçoiaba - PE, 53690-000, Brasil",
        "name": "116113 m batista"
      },
      "type": "Feature"
    },
    {
      "geometry": {
        "coordinates": [
          -35.4576813,
          -8.371902799999999
        ],
        "type": "Point"
      },
      "properties": {
        "address": "Bela Vista, Amaraji - PE, 55515-000, Brasil",
        "name": "140385"
      },
      "type": "Feature"
    },
    {
      "geometry": {
        "coordinates": [
          -35.9806485,
          -8.2962598
        ],
        "type": "Point"
      },
      "properties": {
        "address": "R. Gal Demétrio Ribeiro, 314 - Petrópolis, Caruaru - PE, 55032-410, Brasil",
        "name": "128104"
      },
      "type": "Feature"
    },
    {
      "geometry": {
        "coordinates": [
          -35.7286375,
          -8.4631965
        ],
        "type": "Point"
      },
      "properties": {
        "address": "Av. Agamenon Magalhães, 868, Bonito - PE, 55680-000, Brasil",
        "name": "135910"
      },
      "type": "Feature"
    },
    {
      "geometry": {
        "coordinates": [
          0.0,
          0.0
        ],
        "type": "Point"
      },
      "properties": {
        "address": "R. Itaguaí, 672-684 - Caiuca, Caruaru - PE, 55034-410, Brasil",
        "name": "122024"
      },
      "type": "Feature"
    },
    {
      "geometry": {
        "coordinates": [
          -35.923797,
          -8.2765765
        ],
        "type": "Point"
      },
      "properties": {
        "name": "124825"
      },
      "type": "Feature"
    },
    {
      "geometry": {
        "coordinates": [
          -35.756394,
          -8.239834
        ],
        "type": "Point"
      },
      "properties": {
        "address": "R. Nossa Sra. das Graças, 20, Bezerros - PE, 55660-000, Brasil",
        "name": "137315"
      },
      "type": "Feature"
    },
    {
      "geometry": {
        "coordinates": [
          -34.9028668,
          -7.7722834999999995
        ],
        "type": "Point"
      },
      "properties": {
        "address": "R. Padre Miguel, 160 - Conceição, Itapissuma - PE, 53700-000, Brasil",
        "name": "125516 Mario"
      },
      "type": "Feature"
    },
    {
      "geometry": {
        "coordinates": [
          -35.294360999999995,
          -7.927886999999999
        ],
        "type": "Point"
      },
      "properties": {
        "name": "126701 N171 Ana Paula"
      },
      "type": "Feature"
    },
    {
      "geometry": {
        "coordinates": [
          -35.933524299999995,
          -8.2823757
        ],
        "type": "Point"
      },
      "properties": {
        "name": "129462"
      },
      "type": "Feature"
    },
    {
      "geometry": {
        "coordinates": [
          -39.308596099999995,
          -7.2097032
        ],
        "type": "Point"
      },
      "properties": {
        "address": "R. Praca da Conceicao - Pio XII, Juazeiro do Norte - CE, Brasil",
        "name": "Xxx22"
      },
      "type": "Feature"
    },
    {
      "geometry": {
        "coordinates": [
          -35.556504,
          -8.2038317
        ],
        "type": "Point"
      },
      "properties": {
        "address": "Prado, Gravatá - PE, Brasil",
        "name": "116722"
      },
      "type": "Feature"
    },
    {
      "geometry": {
        "coordinates": [
          -35.221396999999996,
          -7.602805
        ],
        "type": "Point"
      },
      "properties": {
        "name": "138588"
      },
      "type": "Feature"
    },
    {
      "geometry": {
        "coordinates": [
          -35.1940546,
          -8.1114424
        ],
        "type": "Point"
      },
      "properties": {
        "address": "R. Cicero Maranhao, 72 - Bonanca, Moreno - PE, 54800-000, Brasil",
        "name": "136839"
      },
      "type": "Feature"
    },
    {
      "geometry": {
        "coordinates": [
          -35.5575198,
          -8.1956452
        ],
        "type": "Point"
      },
      "properties": {
        "address": "R. Joaquim Faustino, 46 - Santo Antonio, Gravatá - PE, 55642-528, Brasil",
        "name": "137193 alex"
      },
      "type": "Feature"
    },
    {
      "geometry": {
        "coordinates": [
          -35.5660921,
          -8.1949179
        ],
        "type": "Point"
      },
      "properties": {
        "address": "R. Mal. Costa e Silva, 51-1 - Novo Gravatá, Gravatá - PE, 55645-210, Brasil",
        "name": "121024"
      },
      "type": "Feature"
    },
    {
      "geometry": {
        "coordinates": [
          -35.9878545,
          -8.286992
        ],
        "type": "Point"
      },
      "properties": {
        "name": "143141"
      },
      "type": "Feature"
    },
    {
      "geometry": {
        "coordinates": [
          -35.9465321,
          -8.4569856
        ],
        "type": "Point"
      },
      "properties": {
        "address": "R. Mal. Rondon, 47, Agrestina - PE, 55495-000, Brasil",
        "name": "129821"
      },
      "type": "Feature"
    },
    {
      "geometry": {
        "coordinates": [
          -35.762761999999995,
          -7.8450776
        ],
        "type": "Point"
      },
      "properties": {
        "address": "R. Estela Mota, 98 - São Sebastiao, Surubim - PE, 55750-000, Brasil",
        "name": "128648 n133 edinho"
      },
      "type": "Feature"
    },
    {
      "geometry": {
        "coordinates": [
          -35.326970599999996,
          -7.5100582
        ],
        "type": "Point"
      },
      "properties": {
        "address": "R. Francisco Gomes, 146 - Cel. Maranhão, Timbaúba - PE, 55870-000, Brasil",
        "name": "141498"
      },
      "type": "Feature"
    },
    {
      "geometry": {
        "coordinates": [
          -35.002108199999995,
          -7.566107799999999
        ],
        "type": "Point"
      },
      "properties": {
        "address": "Wolf Design - R. do Lindo Amor - Centro, Goiana - PE, 55900-000, Brasil",
        "name": "143601"
      },
      "type": "Feature"
    },
    {
      "geometry": {
        "coordinates": [
          0.0,
          0.0
        ],
        "type": "Point"
      },
      "properties": {
        "address": "R. Enéas Teixeira de Carvalho, 199-143, Barra de Guabiraba - PE, 55690-000, Brasil",
        "name": "127883"
      },
      "type": "Feature"
    },
    {
      "geometry": {
        "coordinates": [
          -35.9483464,
          -8.2796942
        ],
        "type": "Point"
      },
      "properties": {
        "address": "Tok's De Beleza - R. Santa Crotilde - Salgado, Caruaru - PE, Brasil",
        "name": "133580"
      },
      "type": "Feature"
    },
    {
      "geometry": {
        "coordinates": [
          -35.3899104,
          -7.9508535
        ],
        "type": "Point"
      },
      "properties": {
        "address": "R. José Gomes, 93, Feira Nova - PE, 55715-000, Brasil",
        "name": "120192 N Weto"
      },
      "type": "Feature"
    },
    {
      "geometry": {
        "coordinates": [
          -35.2985617,
          -8.0016037
        ],
        "type": "Point"
      },
      "properties": {
        "address": "R. Canavieira, 131 - Gloria Do Goita, Glória do Goitá - PE, 55620-000, Brasil",
        "name": "143568"
      },
      "type": "Feature"
    },
    {
      "geometry": {
        "coordinates": [
          -35.1788027,
          -7.8952515
        ],
        "type": "Point"
      },
      "properties": {
        "address": "Praça Raul Bandeira - R. Raul Bandeira, Paudalho - PE, 55825-000, Brasil",
        "name": "99481"
      },
      "type": "Feature"
    },
    {
      "geometry": {
        "coordinates": [
          -34.896921299999995,
          -7.6041387
        ],
        "type": "Point"
      },
      "properties": {
        "name": "125707"
      },
      "type": "Feature"
    },
    {
      "geometry": {
        "coordinates": [
          -39.428193799999995,
          -7.2375563
        ],
        "type": "Point"
      },
      "properties": {
        "address": "R. 122, 332-418 - Novo Crato, Crato - CE, 63113-370, Brasil",
        "name": "i20 jane n280"
      },
      "type": "Feature"
    },
    {
      "geometry": {
        "coordinates": [
          -35.943672,
          -8.460159599999999
        ],
        "type": "Point"
      },
      "properties": {
        "address": "R. Ver. João Augusto da Silva, 30, Agrestina - PE, 55495-000, Brasil",
        "name": "123302"
      },
      "type": "Feature"
    },
    {
      "geometry": {
        "coordinates": [
          -35.0849872,
          -7.7852197
        ],
        "type": "Point"
      },
      "properties": {
        "address": "R. Bom Jesus, 65, Araçoiaba - PE, 53690-000, Brasil",
        "name": "137818 ana"
      },
      "type": "Feature"
    },
    {
      "geometry": {
        "coordinates": [
          -35.292617899999996,
          -7.9981537
        ],
        "type": "Point"
      },
      "properties": {
        "address": "R. Pedro de Souza Leão, 1-143, Glória do Goitá - PE, 55620-000, Brasil",
        "name": "143574"
      },
      "type": "Feature"
    },
    {
      "geometry": {
        "coordinates": [
          -34.9933197,
          -7.5597569
        ],
        "type": "Point"
      },
      "properties": {
        "address": "R. do Curtume, 71, Goiana - PE, 55900-000, Brasil",
        "name": "140032 c dele"
      },
      "type": "Feature"
    },
    {
      "geometry": {
        "coordinates": [
          -35.102410299999995,
          -8.036926
        ],
        "type": "Point"
      },
      "properties": {
        "address": "R. Ercina Lapenda, 18 - Nossa Sra. Da Luz, São Lourenço da Mata - PE, 54749-000, Brasil",
        "name": "132517"
      },
      "type": "Feature"
    },
    {
      "geometry": {
        "coordinates": [
          -35.319882,
          -7.6527708
        ],
        "type": "Point"
      },
      "properties": {
        "address": "R. Prof. Mota Albuquerque, 136, Vicência - PE, 55850-000, Brasil",
        "name": "107277 n122 jose"
      },
      "type": "Feature"
    },
    {
      "geometry": {
        "coordinates": [
          -35.5638274,
          -8.2032354
        ],
        "type": "Point"
      },
      "properties": {
        "name": "126797"
      },
      "type": "Feature"
    },
    {
      "geometry": {
        "coordinates": [
          -35.0073341,
          -7.563604499999999
        ],
        "type": "Point"
      },
      "properties": {
        "address": "Av. Manoel Carlos de Mendonça, 106-146, Goiana - PE, 55900-000, Brasil",
        "name": "123862 n27 michele"
      },
      "type": "Feature"
    },
    {
      "geometry": {
        "coordinates": [
          -35.9710317,
          -8.3001864
        ],
        "type": "Point"
      },
      "properties": {
        "address": "EM José Raimundo Sobrinho - Sítio Pitombeiras 1°, Caruaru - PE, 55000-990, Brasil",
        "name": "130043"
      },
      "type": "Feature"
    },
    {
      "geometry": {
        "coordinates": [
          -34.9967707,
          -7.5554896
        ],
        "type": "Point"
      },
      "properties": {
        "address": "Alameda do Eucalípto, 2-118, Goiana - PE, 55900-000, Brasil",
        "name": "145021 m lurdes"
      },
      "type": "Feature"
    },
    {
      "geometry": {
        "coordinates": [
          -35.8471881,
          -8.2998549
        ],
        "type": "Point"
      },
      "properties": {
        "address": "R. Joao Manoel De Lira, 3 - Encruzilhada de São João, Bezerros - PE, 55660-000, Brasil",
        "name": "128390"
      },
      "type": "Feature"
    },
    {
      "geometry": {
        "coordinates": [
          -39.305318199999995,
          -7.2393151
        ],
        "type": "Point"
      },
      "properties": {
        "name": "l4 francisco n20 vizim n22"
      },
      "type": "Feature"
    },
    {
      "geometry": {
        "coordinates": [
          -35.4544365,
          -8.238292699999999
        ],
        "type": "Point"
      },
      "properties": {
        "address": "R. João Firmino de Paiva Sobrinho, 30, Chã Grande - PE, 55636-000, Brasil",
        "name": "132526"
      },
      "type": "Feature"
    },
    {
      "geometry": {
        "coordinates": [
          -35.207421,
          -7.991416999999999
        ],
        "type": "Point"
      },
      "properties": {
        "name": "140123"
      },
      "type": "Feature"
    },
    {
      "geometry": {
        "coordinates": [
          -35.2963818,
          -7.923231599999999
        ],
        "type": "Point"
      },
      "properties": {
        "address": "R. B, 50 - Vila Boa Esperança, Lagoa do Itaenga - PE, 55840-000, Brasil",
        "name": "123797 N27 Sandra"
      },
      "type": "Feature"
    },
    {
      "geometry": {
        "coordinates": [
          -39.433426999999995,
          -7.237617299999999
        ],
        "type": "Point"
      },
      "properties": {
        "address": "R. Antônio de Alencar Araripe, 514-618 - Novo Crato, Crato - CE, Brasil",
        "name": "i21 joao metal n111"
      },
      "type": "Feature"
    },
    {
      "geometry": {
        "coordinates": [
          -35.928263,
          -8.282002
        ],
        "type": "Point"
      },
      "properties": {
        "name": "136086"
      },
      "type": "Feature"
    },
    {
      "geometry": {
        "coordinates": [
          -35.4406184,
          -7.8861129
        ],
        "type": "Point"
      },
      "properties": {
        "address": "R. Inácio Andrade de Oliveira, 59 - Otácio de Lemos, Limoeiro - PE, 55700-000, Brasil",
        "name": "130269 n62 rele"
      },
      "type": "Feature"
    },
    {
      "geometry": {
        "coordinates": [
          -35.1856703,
          -8.1088951
        ],
        "type": "Point"
      },
      "properties": {
        "address": "R. João Lino de Oliveira, 95, Moreno - PE, 53690-000, Brasil",
        "name": "135858"
      },
      "type": "Feature"
    },
    {
      "geometry": {
        "coordinates": [
          -35.813918,
          -8.330069
        ],
        "type": "Point"
      },
      "properties": {
        "name": "133713"
      },
      "type": "Feature"
    },
    {
      "geometry": {
        "coordinates": [
          -35.3253939,
          -7.7228371
        ],
        "type": "Point"
      },
      "properties": {
        "address": "R. 20, 30, Buenos Aires - PE, 55845-000, Brasil",
        "name": "137728"
      },
      "type": "Feature"
    },
    {
      "geometry": {
        "coordinates": [
          -35.7621047,
          -8.364451299999999
        ],
        "type": "Point"
      },
      "properties": {
        "address": "Despertar Bike - Av. Cel. João Bezerra, Camocim de São Félix - PE, 55665-000, Brasil",
        "name": "141854"
      },
      "type": "Feature"
    },
    {
      "geometry": {
        "coordinates": [
          -35.7601861,
          -8.3670176
        ],
        "type": "Point"
      },
      "properties": {
        "address": "R. Gustavo Monteiro, 961, Camocim de São Félix - PE, 55665-000, Brasil",
        "name": "134817"
      },
      "type": "Feature"
    },
    {
      "geometry": {
        "coordinates": [
          -35.2784092,
          -7.4093241
        ],
        "type": "Point"
      },
      "properties": {
        "address": "R. Maurício Dias Pereira, Brasil",
        "name": "111629 maria"
      },
      "type": "Feature"
    },
    {
      "geometry": {
        "coordinates": [
          -34.9045807,
          -7.7709144
        ],
        "type": "Point"
      },
      "properties": {
        "address": "Grêmio, Itapissuma - PE, 53700-000, Brasil",
        "name": "140485 N975 Janaina"
      },
      "type": "Feature"
    },
    {
      "geometry": {
        "coordinates": [
          -36.0028138,
          -8.286086899999999
        ],
        "type": "Point"
      },
      "properties": {
        "name": "145780"
      },
      "type": "Feature"
    },
    {
      "geometry": {
        "coordinates": [
          -35.212677299999996,
          -8.000799299999999
        ],
        "type": "Point"
      },
      "properties": {
        "address": "Guindaste, Chã de Alegria - PE, 55835-000, Brasil",
        "name": "134115"
      },
      "type": "Feature"
    },
    {
      "geometry": {
        "coordinates": [
          -35.8586203,
          -8.138513999999999
        ],
        "type": "Point"
      },
      "properties": {
        "name": "ff camiao"
      },
      "type": "Feature"
    },
    {
      "geometry": {
        "coordinates": [
          -35.1837807,
          -7.8910749
        ],
        "type": "Point"
      },
      "properties": {
        "address": "R. Sisenando Nabuco, 189, Paudalho - PE, 55825-000, Brasil",
        "name": "116852"
      },
      "type": "Feature"
    },
    {
      "geometry": {
        "coordinates": [
          -35.5636773,
          -8.2062751
        ],
        "type": "Point"
      },
      "properties": {
        "address": "R. Manoel Vicente Ferreira, 71-21 - Prado, Gravatá - PE, Brasil",
        "name": "129783"
      },
      "type": "Feature"
    },
    {
      "geometry": {
        "coordinates": [
          -35.763366,
          -7.8567091
        ],
        "type": "Point"
      },
      "properties": {
        "address": "Hospital Municipal De Surubim - 165, R. Florípes da Silva Baier, 1 - Lot. Vale do Paraguai, Surubim - State of Pernambuco, 55750-000, Brasil",
        "name": "139068 marluce"
      },
      "type": "Feature"
    },
    {
      "geometry": {
        "coordinates": [
          0.0,
          0.0
        ],
        "type": "Point"
      },
      "properties": {
        "address": "R. da União, 81-19 - Bairro Novo, Gravatá - PE, Brasil",
        "name": "139124"
      },
      "type": "Feature"
    },
    {
      "geometry": {
        "coordinates": [
          -35.4538406,
          -8.2414082
        ],
        "type": "Point"
      },
      "properties": {
        "address": "Brasil",
        "name": "109520"
      },
      "type": "Feature"
    },
    {
      "geometry": {
        "coordinates": [
          -34.901089299999995,
          -7.7717763
        ],
        "type": "Point"
      },
      "properties": {
        "address": "R. Benicio Rodrigues Fernandes, 47 - Poeira, Itapissuma - PE, 53700-000, Brasil",
        "name": "125489 N47 Gedssio"
      },
      "type": "Feature"
    },
    {
      "geometry": {
        "coordinates": [
          -35.0089304,
          -7.560819599999999
        ],
        "type": "Point"
      },
      "properties": {
        "address": "R. José Maria de Albuquerque Melo, 108 - Zona Res. 06, Goiana - PE, 55900-000, Brasil",
        "name": "127481 n107 m lidia"
      },
      "type": "Feature"
    },
    {
      "geometry": {
        "coordinates": [
          -35.9838059,
          -8.3008855
        ],
        "type": "Point"
      },
      "properties": {
        "address": "R. Costa Carvalho, 464 - Agamenon Magalhães, Caruaru - PE, 55032-540, Brasil",
        "name": "129661"
      },
      "type": "Feature"
    },
    {
      "geometry": {
        "coordinates": [
          -39.4061461,
          -7.226668
        ],
        "type": "Point"
      },
      "properties": {
        "name": "i83 jose edmilson n137"
      },
      "type": "Feature"
    },
    {
      "geometry": {
        "coordinates": [
          -35.5742877,
          -8.1996899
        ],
        "type": "Point"
      },
      "properties": {
        "address": "R. Comendador Miguel Gastão Oliveira, 210 - Norte, Gravatá - PE, 55641-440, Brasil",
        "name": "133515"
      },
      "type": "Feature"
    },
    {
      "geometry": {
        "coordinates": [
          -35.5652946,
          -8.2099441
        ],
        "type": "Point"
      },
      "properties": {
        "address": "R. Santa Bárbara, 105 - Boa Vista, Gravatá - PE, 55644-075, Brasil",
        "name": "134973"
      },
      "type": "Feature"
    },
    {
      "geometry": {
        "coordinates": [
          -35.002792299999996,
          -7.5654905999999995
        ],
        "type": "Point"
      },
      "properties": {
        "address": "R. Nilton Teodoro, 410 - Zona Res. 06, Goiana - PE, 55900-000, Brasil",
        "name": "146436"
      },
      "type": "Feature"
    },
    {
      "geometry": {
        "coordinates": [
          -35.0992555,
          -7.662307299999999
        ],
        "type": "Point"
      },
      "properties": {
        "address": "Campo Do União - Rua José Joaquim De Oliveira, R. Ana Pinto Duarte - Centro, Itaquitinga - PE, 55950-000, Brasil",
        "name": "137043"
      },
      "type": "Feature"
    },
    {
      "geometry": {
        "coordinates": [
          -35.2252665,
          -7.6039938
        ],
        "type": "Point"
      },
      "properties": {
        "address": "Rua Projetada, 35, Aliança - PE, 55890-000, Brasil",
        "name": "139366 N35 Rsiane"
      },
      "type": "Feature"
    },
    {
      "geometry": {
        "coordinates": [
          -35.7103186,
          -8.3296865
        ],
        "type": "Point"
      },
      "properties": {
        "name": "121761"
      },
      "type": "Feature"
    },
    {
      "geometry": {
        "coordinates": [
          -35.0863201,
          -7.7892531
        ],
        "type": "Point"
      },
      "properties": {
        "address": "Av. João José de Freitas, 192, Araçoiaba - PE, 53690-000, Brasil",
        "name": "140745 n220 bruno"
      },
      "type": "Feature"
    },
    {
      "geometry": {
        "coordinates": [
          -35.9852091,
          -8.2873778
        ],
        "type": "Point"
      },
      "properties": {
        "address": "R. Padre Antônio Ribeiro, 74 - Caiuca, Caruaru - PE, 55034-240, Brasil",
        "name": "136099"
      },
      "type": "Feature"
    },
    {
      "geometry": {
        "coordinates": [
          -35.5462503,
          -8.4721153
        ],
        "type": "Point"
      },
      "properties": {
        "address": "R. Odilon de Melo, 57, Bonito - PE, 55525-000, Brasil",
        "name": "129322"
      },
      "type": "Feature"
    },
    {
      "geometry": {
        "coordinates": [
          -35.7123537,
          -8.3261266
        ],
        "type": "Point"
      },
      "properties": {
        "name": "131745"
      },
      "type": "Feature"
    },
    {
      "geometry": {
        "coordinates": [
          -35.2369868,
          -7.7477597
        ],
        "type": "Point"
      },
      "properties": {
        "address": "R. Aprígio Ramos, 127, Nazaré da Mata - PE, 55800-000, Brasil",
        "name": "144809"
      },
      "type": "Feature"
    },
    {
      "geometry": {
        "coordinates": [
          -35.174814999999995,
          -7.8982702
        ],
        "type": "Point"
      },
      "properties": {
        "address": "R. Manoel F da Rosa, 59, Paudalho - PE, 55825-000, Brasil",
        "name": "114513"
      },
      "type": "Feature"
    },
    {
      "geometry": {
        "coordinates": [
          -35.7475872,
          -8.2342931
        ],
        "type": "Point"
      },
      "properties": {
        "address": "R. F, 38 - Centro, Bezerros - PE, 55660-000, Brasil",
        "name": "127984"
      },
      "type": "Feature"
    },
    {
      "geometry": {
        "coordinates": [
          -35.5649222,
          -8.2039267
        ],
        "type": "Point"
      },
      "properties": {
        "address": "R. Santo Antônio, 221 - Prado, Gravatá - PE, Brasil",
        "name": "133491"
      },
      "type": "Feature"
    },
    {
      "geometry": {
        "coordinates": [
          0.0,
          0.0
        ],
        "type": "Point"
      },
      "properties": {
        "address": "Av. Afonso Alves da Silva, Barra de Guabiraba - PE, 55690-000, Brasil",
        "name": "133288"
      },
      "type": "Feature"
    },
    {
      "geometry": {
        "coordinates": [
          -39.396322999999995,
          -7.2376017
        ],
        "type": "Point"
      },
      "properties": {
        "address": "R. Sen. Carlos Jereissate, 07 - Mirandao, Crato - CE, 63125-040, Brasil",
        "name": "e25 fabiana (bia)n1032"
      },
      "type": "Feature"
    },
    {
      "geometry": {
        "coordinates": [
          -35.3782809,
          -7.9470569
        ],
        "type": "Point"
      },
      "properties": {
        "address": "R. Jesuíno Ferreira, 30, Feira Nova - PE, 55715-000, Brasil",
        "name": "130893 N37 Elaine"
      },
      "type": "Feature"
    },
    {
      "geometry": {
        "coordinates": [
          -35.5594202,
          -8.197682
        ],
        "type": "Point"
      },
      "properties": {
        "address": "R. Joaquim Souto, 54-2 - Prado, Gravatá - PE, 55642-250, Brasil",
        "name": "123219 trabalho dela"
      },
      "type": "Feature"
    },
    {
      "geometry": {
        "coordinates": [
          -35.4029676,
          -8.1431879
        ],
        "type": "Point"
      },
      "properties": {
        "address": "R. I, 41, Pombos - PE, 55630-000, Brasil",
        "name": "135455 v4"
      },
      "type": "Feature"
    },
    {
      "geometry": {
        "coordinates": [
          -35.464665,
          -8.238658
        ],
        "type": "Point"
      },
      "properties": {
        "name": "119401"
      },
      "type": "Feature"
    },
    {
      "geometry": {
        "coordinates": [
          -35.86031,
          -8.135561
        ],
        "type": "Point"
      },
      "properties": {
        "name": "138441"
      },
      "type": "Feature"
    },
    {
      "geometry": {
        "coordinates": [
          -35.2128412,
          -7.9998111
        ],
        "type": "Point"
      },
      "properties": {
        "address": "Salão do Reino das Testemunhas de Jeová - R. Floriano Peixoto, 214 - Centro, Chã de Alegria - PE, 55835-000, Brasil",
        "name": "133772"
      },
      "type": "Feature"
    },
    {
      "geometry": {
        "coordinates": [
          -35.9861021,
          -8.2841692
        ],
        "type": "Point"
      },
      "properties": {
        "address": "R. Plácido de Castro, 211 - Caiuca, Caruaru - PE, 55034-215, Brasil",
        "name": "123181"
      },
      "type": "Feature"
    },
    {
      "geometry": {
        "coordinates": [
          -35.4604226,
          -8.2376305
        ],
        "type": "Point"
      },
      "properties": {
        "address": "PE-071, 12, Chã Grande - PE, 55636-000, Brasil",
        "name": "119412"
      },
      "type": "Feature"
    },
    {
      "geometry": {
        "coordinates": [
          -39.300036999999996,
          -7.216489999999999
        ],
        "type": "Point"
      },
      "properties": {
        "address": "R. Valdomiro Ribeiro, 85 - Timbaúba, Juazeiro do Norte - CE, 63028-200, Brasil",
        "name": "l43 lucineide n84"
      },
      "type": "Feature"
    },
    {
      "geometry": {
        "coordinates": [
          -35.2126911,
          -7.9946245
        ],
        "type": "Point"
      },
      "properties": {
        "name": "139940 pisaria"
      },
      "type": "Feature"
    },
    {
      "geometry": {
        "coordinates": [
          -35.2113124,
          -7.996864599999999
        ],
        "type": "Point"
      },
      "properties": {
        "name": "142231"
      },
      "type": "Feature"
    },
    {
      "geometry": {
        "coordinates": [
          -35.736834,
          -8.471466
        ],
        "type": "Point"
      },
      "properties": {
        "address": "R. Ver. Antonio Bezerra, 7 - Bonito, PE, 55680-000, Brasil",
        "name": "134813"
      },
      "type": "Feature"
    },
    {
      "geometry": {
        "coordinates": [
          -35.6628231,
          -8.4215492
        ],
        "type": "Point"
      },
      "properties": {
        "name": "126129"
      },
      "type": "Feature"
    },
    {
      "geometry": {
        "coordinates": [
          -35.5638441,
          -8.2036117
        ],
        "type": "Point"
      },
      "properties": {
        "address": "R. Anita Garibalde, 132-170 - Prado, Gravatá - PE, Brasil",
        "name": "108027"
      },
      "type": "Feature"
    },
    {
      "geometry": {
        "coordinates": [
          -35.224613,
          -7.77053
        ],
        "type": "Point"
      },
      "properties": {
        "name": "141736"
      },
      "type": "Feature"
    },
    {
      "geometry": {
        "coordinates": [
          -35.4463041,
          -7.551491899999999
        ],
        "type": "Point"
      },
      "properties": {
        "address": "R. Brasíliano Ribeiro de Souza, 315, Macaparana - PE, 55865-000, Brasil",
        "name": "146188"
      },
      "type": "Feature"
    },
    {
      "geometry": {
        "coordinates": [
          -39.3851961,
          -7.2520267
        ],
        "type": "Point"
      },
      "properties": {
        "name": "d16 cristovo n91"
      },
      "type": "Feature"
    },
    {
      "geometry": {
        "coordinates": [
          -35.992616399999996,
          -8.2840744
        ],
        "type": "Point"
      },
      "properties": {
        "name": "141480"
      },
      "type": "Feature"
    },
    {
      "geometry": {
        "coordinates": [
          -35.444216,
          -7.881588
        ],
        "type": "Point"
      },
      "properties": {
        "address": "R. Dez, 193 - Limoeiro, PE, 55700-000, Brasil",
        "name": "129828 n228 carla"
      },
      "type": "Feature"
    },
    {
      "geometry": {
        "coordinates": [
          -35.312277,
          -7.852669
        ],
        "type": "Point"
      },
      "properties": {
        "name": "88494 alexado"
      },
      "type": "Feature"
    },
    {
      "geometry": {
        "coordinates": [
          0.0,
          0.0
        ],
        "type": "Point"
      },
      "properties": {
        "address": "R. Rad. Macdowell Holanda, 1-10 - Salgado, Caruaru - PE, Brasil",
        "name": "136866"
      },
      "type": "Feature"
    },
    {
      "geometry": {
        "coordinates": [
          -35.5676777,
          -8.2095326
        ],
        "type": "Point"
      },
      "properties": {
        "address": "R. Sete de Setembro, 327 - Boa Vista, Gravatá - PE, Brasil",
        "name": "143990"
      },
      "type": "Feature"
    },
    {
      "geometry": {
        "coordinates": [
          -35.105610999999996,
          -7.672527
        ],
        "type": "Point"
      },
      "properties": {
        "name": "137034"
      },
      "type": "Feature"
    },
    {
      "geometry": {
        "coordinates": [
          -35.353384999999996,
          -8.343313199999999
        ],
        "type": "Point"
      },
      "properties": {
        "name": "142646"
      },
      "type": "Feature"
    },
    {
      "geometry": {
        "coordinates": [
          -35.5628579,
          -8.210657399999999
        ],
        "type": "Point"
      },
      "properties": {
        "address": "R. Cônego Américo, 19 - COHAB II, Gravatá - PE, Brasil",
        "name": "125986"
      },
      "type": "Feature"
    },
    {
      "geometry": {
        "coordinates": [
          -35.7314074,
          -8.465561
        ],
        "type": "Point"
      },
      "properties": {
        "address": "Serralharia Brasil, Brasil",
        "name": "117102"
      },
      "type": "Feature"
    },
    {
      "geometry": {
        "coordinates": [
          -39.2693705,
          -7.2095115
        ],
        "type": "Point"
      },
      "properties": {
        "address": "R. Roberto Monte dos Santos - Pedrinhas, Juazeiro do Norte - CE, 63018-420, Brasil",
        "name": "p3 aila n80"
      },
      "type": "Feature"
    },
    {
      "geometry": {
        "coordinates": [
          -35.933546899999996,
          -8.2823513
        ],
        "type": "Point"
      },
      "properties": {
        "address": "R. R. Dezoito, 116b - Rendeiras, Caruaru - PE, 55022-330, Brasil",
        "name": "131164"
      },
      "type": "Feature"
    },
    {
      "geometry": {
        "coordinates": [
          -35.5836738,
          -7.9819463
        ],
        "type": "Point"
      },
      "properties": {
        "address": "Tv. Primeiro de Maio, 44, Passira - PE, 55650-000, Brasil",
        "name": "142109"
      },
      "type": "Feature"
    },
    {
      "geometry": {
        "coordinates": [
          -39.2882372,
          -7.2105443
        ],
        "type": "Point"
      },
      "properties": {
        "name": "p31 maria cicera cima n102"
      },
      "type": "Feature"
    },
    {
      "geometry": {
        "coordinates": [
          -35.396139999999995,
          -8.147743
        ],
        "type": "Point"
      },
      "properties": {
        "name": "132604"
      },
      "type": "Feature"
    },
    {
      "geometry": {
        "coordinates": [
          -35.3241435,
          -7.6533169999999995
        ],
        "type": "Point"
      },
      "properties": {
        "address": "Vicência - PE, 55850-000, Brasil",
        "name": "125191"
      },
      "type": "Feature"
    },
    {
      "geometry": {
        "coordinates": [
          -35.316506,
          -7.657699
        ],
        "type": "Point"
      },
      "properties": {
        "name": "119961 f136 marisa"
      },
      "type": "Feature"
    },
    {
      "geometry": {
        "coordinates": [
          -35.454676,
          -8.371742
        ],
        "type": "Point"
      },
      "properties": {
        "name": "139193"
      },
      "type": "Feature"
    },
    {
      "geometry": {
        "coordinates": [
          -35.525389,
          -7.682188699999999
        ],
        "type": "Point"
      },
      "properties": {
        "address": "Orobó - PE, 55740-000, Brasil",
        "name": "134554"
      },
      "type": "Feature"
    },
    {
      "geometry": {
        "coordinates": [
          -35.860935999999995,
          -8.14129
        ],
        "type": "Point"
      },
      "properties": {
        "name": "126444"
      },
      "type": "Feature"
    },
    {
      "geometry": {
        "coordinates": [
          -35.5711558,
          -8.212194499999999
        ],
        "type": "Point"
      },
      "properties": {
        "address": "R. São Pedro, 152 - Cruzeiro, Gravatá - PE, Brasil",
        "name": "137195 aldenia 297a"
      },
      "type": "Feature"
    },
    {
      "geometry": {
        "coordinates": [
          -35.4878438,
          -7.5933915
        ],
        "type": "Point"
      },
      "properties": {
        "name": "113232 patricia"
      },
      "type": "Feature"
    },
    {
      "geometry": {
        "coordinates": [
          -35.979415599999996,
          -8.2898456
        ],
        "type": "Point"
      },
      "properties": {
        "name": "129674"
      },
      "type": "Feature"
    },
    {
      "geometry": {
        "coordinates": [
          -35.3198728,
          -7.6522122999999995
        ],
        "type": "Point"
      },
      "properties": {
        "address": "R. Prof. Mota Albuquerque, 18, Vicência - PE, 55850-000, Brasil",
        "name": "124556 n136 batata"
      },
      "type": "Feature"
    },
    {
      "geometry": {
        "coordinates": [
          -39.315146,
          -7.229154899999999
        ],
        "type": "Point"
      },
      "properties": {
        "address": "R. Joaquim de Souza Menezes, 450-498 - Romeirao, Juazeiro do Norte - CE, 63050-630, Brasil",
        "name": "tatu filip estudio"
      },
      "type": "Feature"
    },
    {
      "geometry": {
        "coordinates": [
          -39.292479199999995,
          -7.2253172
        ],
        "type": "Point"
      },
      "properties": {
        "name": "l20 João batista n264 fre n267"
      },
      "type": "Feature"
    },
    {
      "geometry": {
        "coordinates": [
          -39.3852256,
          -7.2520785
        ],
        "type": "Point"
      },
      "properties": {
        "name": "d19 maria luzinete dela n88 f87"
      },
      "type": "Feature"
    },
    {
      "geometry": {
        "coordinates": [
          -39.3050986,
          -7.2038907
        ],
        "type": "Point"
      },
      "properties": {
        "name": "l90 socorro soares n6 f5 v02"
      },
      "type": "Feature"
    },
    {
      "geometry": {
        "coordinates": [
          -35.564902,
          -8.215904
        ],
        "type": "Point"
      },
      "properties": {
        "name": "127941 jose n21"
      },
      "type": "Feature"
    },
    {
      "geometry": {
        "coordinates": [
          -35.976327399999995,
          -8.290816399999999
        ],
        "type": "Point"
      },
      "properties": {
        "name": "128092"
      },
      "type": "Feature"
    },
    {
      "geometry": {
        "coordinates": [
          -39.3242517,
          -7.2029467
        ],
        "type": "Point"
      },
      "properties": {
        "address": "R. Alencar Peixoto, 62 - Socorro, Juazeiro do Norte - CE, 63010-225, Brasil",
        "name": "m1 sandra n15c v13b"
      },
      "type": "Feature"
    },
    {
      "geometry": {
        "coordinates": [
          -35.2960108,
          -7.9984439
        ],
        "type": "Point"
      },
      "properties": {
        "address": "Av. Djalma Dutra, 101, Glória do Goitá - PE, 55620-000, Brasil",
        "name": "140101"
      },
      "type": "Feature"
    },
    {
      "geometry": {
        "coordinates": [
          -35.3089193,
          -7.5185873999999995
        ],
        "type": "Point"
      },
      "properties": {
        "address": "R. Antônio Ricardo, 7 - Mocós, Timbaúba - PE, 55870-000, Brasil",
        "name": "136563 cida"
      },
      "type": "Feature"
    },
    {
      "geometry": {
        "coordinates": [
          -35.5641132,
          -8.2042184
        ],
        "type": "Point"
      },
      "properties": {
        "address": "R. Dom Vital, 40 - Prado, Gravatá - PE, 55642-080, Brasil",
        "name": "137328"
      },
      "type": "Feature"
    },
    {
      "geometry": {
        "coordinates": [
          -35.3245952,
          -7.6547277
        ],
        "type": "Point"
      },
      "properties": {
        "name": "101117 f35 batalia"
      },
      "type": "Feature"
    },
    {
      "geometry": {
        "coordinates": [
          -35.5598029,
          -8.202793999999999
        ],
        "type": "Point"
      },
      "properties": {
        "address": "Val Silva -Nail Designer - Prado, Gravatá - PE, Brasil",
        "name": "116868"
      },
      "type": "Feature"
    },
    {
      "geometry": {
        "coordinates": [
          0.0,
          0.0
        ],
        "type": "Point"
      },
      "properties": {
        "address": "R. La Paz, 48-100 - João Mota, Caruaru - PE, 55010-080, Brasil",
        "name": "132918"
      },
      "type": "Feature"
    },
    {
      "geometry": {
        "coordinates": [
          -35.5570229,
          -8.2013593
        ],
        "type": "Point"
      },
      "properties": {
        "address": "Prado, Gravatá - PE, Brasil",
        "name": "105335"
      },
      "type": "Feature"
    },
    {
      "geometry": {
        "coordinates": [
          -35.2943607,
          -7.9970284
        ],
        "type": "Point"
      },
      "properties": {
        "address": "R. Manoel Pessoa de L. Filho, 15 - Santa Rita, Glória do Goitá - PE, 55620-000, Brasil",
        "name": "133661"
      },
      "type": "Feature"
    },
    {
      "geometry": {
        "coordinates": [
          -35.8108803,
          -8.4331289
        ],
        "type": "Point"
      },
      "properties": {
        "address": "Boteco do Lamba - Quarta Travessa Manoel Farias - Creche, São Joaquim do Monte - PE, 55670-000, Brasil",
        "name": "138402"
      },
      "type": "Feature"
    },
    {
      "geometry": {
        "coordinates": [
          -35.9435368,
          -8.4614283
        ],
        "type": "Point"
      },
      "properties": {
        "address": "R. José Lauro Tenório, 24, Agrestina - PE, 55495-000, Brasil",
        "name": "134935"
      },
      "type": "Feature"
    },
    {
      "geometry": {
        "coordinates": [
          -35.5511817,
          -8.1936963
        ],
        "type": "Point"
      },
      "properties": {
        "address": "Gta Distribuidora Cimento E Construção, Brasil",
        "name": "98878"
      },
      "type": "Feature"
    },
    {
      "geometry": {
        "coordinates": [
          -35.176962599999996,
          -7.8980283
        ],
        "type": "Point"
      },
      "properties": {
        "address": "R. da Mangueira, 285 - Paudalho, PE, 55825-000, Brasil",
        "name": "128712"
      },
      "type": "Feature"
    },
    {
      "geometry": {
        "coordinates": [
          -35.985576,
          -8.2875774
        ],
        "type": "Point"
      },
      "properties": {
        "address": "Filipe e Eduardo Coiffeur - R. Pedro Américo, 51 - Caiuca, Caruaru - PE, 55034-260, Brasil",
        "name": "143146 prego"
      },
      "type": "Feature"
    },
    {
      "geometry": {
        "coordinates": [
          0.0,
          0.0
        ],
        "type": "Point"
      },
      "properties": {
        "address": "R. Sete de Setembro, 21-799 - Boa Vista, Gravatá - PE, 55644-150, Brasil",
        "name": "126723"
      },
      "type": "Feature"
    },
    {
      "geometry": {
        "coordinates": [
          -39.297823699999995,
          -7.2532596
        ],
        "type": "Point"
      },
      "properties": {
        "address": "R. David Andrade Da Silva, 6761 - Com Campo Alegre, Juazeiro do Norte - CE, 63010-970, Brasil",
        "name": "p86 jose alberti n11"
      },
      "type": "Feature"
    },
    {
      "geometry": {
        "coordinates": [
          -35.0020466,
          -7.5615068999999995
        ],
        "type": "Point"
      },
      "properties": {
        "address": "Goiana - PE, 55900-000, Brasil",
        "name": "144315"
      },
      "type": "Feature"
    },
    {
      "geometry": {
        "coordinates": [
          -35.579784,
          -8.189308
        ],
        "type": "Point"
      },
      "properties": {
        "name": "125989"
      },
      "type": "Feature"
    },
    {
      "geometry": {
        "coordinates": [
          -35.9850815,
          -8.2857792
        ],
        "type": "Point"
      },
      "properties": {
        "address": "Soparia e Comedoria Q'Sabor - R. Manoel de Abreu, 190 - Caiuca, Caruaru - PE, 55034-320, Brasil",
        "name": "136849"
      },
      "type": "Feature"
    },
    {
      "geometry": {
        "coordinates": [
          -35.0081336,
          -7.561467599999999
        ],
        "type": "Point"
      },
      "properties": {
        "address": "R. do Timóteo, 27, Goiana - PE, 55900-000, Brasil",
        "name": "115983 n853 tatiane"
      },
      "type": "Feature"
    },
    {
      "geometry": {
        "coordinates": [
          -35.005145399999996,
          -7.5596868
        ],
        "type": "Point"
      },
      "properties": {
        "address": "R. Clementino Coelho, 176 - Zona Res. 06, Goiana - PE, 55900-000, Brasil",
        "name": "121400"
      },
      "type": "Feature"
    },
    {
      "geometry": {
        "coordinates": [
          -35.5554193,
          -8.2015278
        ],
        "type": "Point"
      },
      "properties": {
        "address": "R. Claudio Coutinho, 2 - Santo Antonio, Gravatá - PE, Brasil",
        "name": "139128"
      },
      "type": "Feature"
    },
    {
      "geometry": {
        "coordinates": [
          -35.758831,
          -8.228037
        ],
        "type": "Point"
      },
      "properties": {
        "name": "143014"
      },
      "type": "Feature"
    },
    {
      "geometry": {
        "coordinates": [
          -34.8998073,
          -7.7751912
        ],
        "type": "Point"
      },
      "properties": {
        "address": "Conceição, Itapissuma - PE, 53700-000, Brasil",
        "name": "118627 N22 Jakson"
      },
      "type": "Feature"
    },
    {
      "geometry": {
        "coordinates": [
          -35.9408319,
          -8.457012599999999
        ],
        "type": "Point"
      },
      "properties": {
        "address": "R. José de Morais, 187, Agrestina - PE, 55495-000, Brasil",
        "name": "125054"
      },
      "type": "Feature"
    },
    {
      "geometry": {
        "coordinates": [
          -35.931692399999996,
          -8.2812974
        ],
        "type": "Point"
      },
      "properties": {
        "name": "132872"
      },
      "type": "Feature"
    },
    {
      "geometry": {
        "coordinates": [
          -39.4263858,
          -7.2348129
        ],
        "type": "Point"
      },
      "properties": {
        "name": "merenda barata"
      },
      "type": "Feature"
    },
    {
      "geometry": {
        "coordinates": [
          -35.7442694,
          -8.2363818
        ],
        "type": "Point"
      },
      "properties": {
        "address": "Brasil",
        "name": "131362"
      },
      "type": "Feature"
    },
    {
      "geometry": {
        "coordinates": [
          -39.423286,
          -7.232596999999999
        ],
        "type": "Point"
      },
      "properties": {
        "address": "R. Diógenes Frazão, 718 - Seminário, Crato - CE, 63113-592, Brasil",
        "name": "i47 francisco bruno n906 Em Cima"
      },
      "type": "Feature"
    },
    {
      "geometry": {
        "coordinates": [
          -35.0030728,
          -7.5661305
        ],
        "type": "Point"
      },
      "properties": {
        "address": "R. dos Oitis, 227-179 - Res. Aldeia do Vale, Goiana - PE, 55900-000, Brasil",
        "name": "138939 n05 siluane"
      },
      "type": "Feature"
    },
    {
      "geometry": {
        "coordinates": [
          -35.3101245,
          -7.8393558
        ],
        "type": "Point"
      },
      "properties": {
        "address": "R. J Sebastiao de Lima, 2-4, Lagoa do Carro - PE, 55820-000, Brasil",
        "name": "113557 jesica"
      },
      "type": "Feature"
    },
    {
      "geometry": {
        "coordinates": [
          -35.933409999999995,
          -8.2833586
        ],
        "type": "Point"
      },
      "properties": {
        "address": "R. Amaro Gonzaga Da Silveira, 209 - Rendeiras, Caruaru - PE, 55022-120, Brasil",
        "name": "130009"
      },
      "type": "Feature"
    },
    {
      "geometry": {
        "coordinates": [
          -35.7422235,
          -8.4747507
        ],
        "type": "Point"
      },
      "properties": {
        "address": "R. Colômbia Ou João C. da Silva, Bonito - PE, Brasil",
        "name": "129538"
      },
      "type": "Feature"
    },
    {
      "geometry": {
        "coordinates": [
          -35.737001899999996,
          -8.471943
        ],
        "type": "Point"
      },
      "properties": {
        "address": "R. Ver. Antonio Bezerra, 18 - Bonito, PE, 55680-000, Brasil",
        "name": "124957"
      },
      "type": "Feature"
    },
    {
      "geometry": {
        "coordinates": [
          -35.5633584,
          -8.1994142
        ],
        "type": "Point"
      },
      "properties": {
        "name": "106944 trabalho dela"
      },
      "type": "Feature"
    },
    {
      "geometry": {
        "coordinates": [
          -35.5523838,
          -8.1977742
        ],
        "type": "Point"
      },
      "properties": {
        "address": "R. Dr. Teodorico Cavalcante, 242 - Prado, Gravatá - PE, 55642-285, Brasil",
        "name": "121077"
      },
      "type": "Feature"
    },
    {
      "geometry": {
        "coordinates": [
          -35.809227199999995,
          -8.433969
        ],
        "type": "Point"
      },
      "properties": {
        "address": "R. Maria José Ferreira dos Santos, 193, São Joaquim do Monte - PE, 55670-000, Brasil",
        "name": "124848"
      },
      "type": "Feature"
    },
    {
      "geometry": {
        "coordinates": [
          -35.564245199999995,
          -8.2098246
        ],
        "type": "Point"
      },
      "properties": {
        "address": "Tv. Ivã Maria das Neves, 129-1 - Boa Vista, Gravatá - PE, Brasil",
        "name": "134447 tisine v80"
      },
      "type": "Feature"
    },
    {
      "geometry": {
        "coordinates": [
          -35.9430881,
          -8.455576299999999
        ],
        "type": "Point"
      },
      "properties": {
        "address": "Av. Dr. Genival de Vasconcelos, 53, Agrestina - PE, 55495-000, Brasil",
        "name": "140630"
      },
      "type": "Feature"
    },
    {
      "geometry": {
        "coordinates": [
          -39.331258399999996,
          -7.2223698
        ],
        "type": "Point"
      },
      "properties": {
        "address": "R. Cecília Meireles, 309 - Antônio Vieira, Juazeiro do Norte - CE, 63022-120, Brasil",
        "name": "m2 jakeline canudo n313 v309"
      },
      "type": "Feature"
    },
    {
      "geometry": {
        "coordinates": [
          -35.222278599999996,
          -7.9963314
        ],
        "type": "Point"
      },
      "properties": {
        "name": "115952"
      },
      "type": "Feature"
    },
    {
      "geometry": {
        "coordinates": [
          -35.814153999999995,
          -8.429385
        ],
        "type": "Point"
      },
      "properties": {
        "name": "120557"
      },
      "type": "Feature"
    },
    {
      "geometry": {
        "coordinates": [
          -35.5633262,
          -8.1967386
        ],
        "type": "Point"
      },
      "properties": {
        "address": "R. Severina Lima da Silva, Gravatá - PE, Brasil",
        "name": "106604"
      },
      "type": "Feature"
    },
    {
      "geometry": {
        "coordinates": [
          -35.8097657,
          -8.4367258
        ],
        "type": "Point"
      },
      "properties": {
        "address": "R. Maria José Barreto, 73, São Joaquim do Monte - PE, 55670-000, Brasil",
        "name": "145542"
      },
      "type": "Feature"
    },
    {
      "geometry": {
        "coordinates": [
          -35.2373513,
          -7.6108917
        ],
        "type": "Point"
      },
      "properties": {
        "address": "Av. Dr. Genésio Gomes de Morais, 15, Aliança - PE, 55890-000, Brasil",
        "name": "137841 N15 Gustavo"
      },
      "type": "Feature"
    },
    {
      "geometry": {
        "coordinates": [
          -35.570893399999996,
          -8.2121234
        ],
        "type": "Point"
      },
      "properties": {
        "address": "R. Princesa Isabel, 297 - Cruzeiro, Gravatá - PE, Brasil",
        "name": "137046"
      },
      "type": "Feature"
    },
    {
      "geometry": {
        "coordinates": [
          -39.2886781,
          -7.210729199999999
        ],
        "type": "Point"
      },
      "properties": {
        "name": "p32 rosa leite n102"
      },
      "type": "Feature"
    },
    {
      "geometry": {
        "coordinates": [
          -35.296763,
          -8.008495
        ],
        "type": "Point"
      },
      "properties": {
        "name": "138610"
      },
      "type": "Feature"
    },
    {
      "geometry": {
        "coordinates": [
          -35.0040587,
          -7.5656181
        ],
        "type": "Point"
      },
      "properties": {
        "address": "R. da Subestação, 23-159, Goiana - PE, 55900-000, Brasil",
        "name": "140969 n153 alexandre"
      },
      "type": "Feature"
    },
    {
      "geometry": {
        "coordinates": [
          -35.577124999999995,
          -8.201934
        ],
        "type": "Point"
      },
      "properties": {
        "name": "133493"
      },
      "type": "Feature"
    },
    {
      "geometry": {
        "coordinates": [
          -35.5655522,
          -8.2089316
        ],
        "type": "Point"
      },
      "properties": {
        "address": "R. da Paz, 347-267 - Boa Vista, Gravatá - PE, 55644-070, Brasil",
        "name": "115459"
      },
      "type": "Feature"
    },
    {
      "geometry": {
        "coordinates": [
          -35.9746121,
          -8.302838
        ],
        "type": "Point"
      },
      "properties": {
        "name": "142360"
      },
      "type": "Feature"
    },
    {
      "geometry": {
        "coordinates": [
          -35.093289999999996,
          -7.7883360999999995
        ],
        "type": "Point"
      },
      "properties": {
        "address": "R. Dr. Irajá de Almeida Lins, 342-362, Araçoiaba - PE, 53690-000, Brasil",
        "name": "133088 n856 juliana"
      },
      "type": "Feature"
    },
    {
      "geometry": {
        "coordinates": [
          0.0,
          0.0
        ],
        "type": "Point"
      },
      "properties": {
        "address": "Miquilina, Amaraji - PE, 55515-000, Brasil",
        "name": "140391"
      },
      "type": "Feature"
    },
    {
      "geometry": {
        "coordinates": [
          -35.0078999,
          -7.956847799999999
        ],
        "type": "Point"
      },
      "properties": {
        "address": "Rua Sérgio Romero, 14 - Vera Cruz, Camaragibe - PE, Brasil",
        "name": "j2 jaco"
      },
      "type": "Feature"
    },
    {
      "geometry": {
        "coordinates": [
          -35.0082556,
          -7.5644921
        ],
        "type": "Point"
      },
      "properties": {
        "address": "Av. Manoel Carlos de Mendonça, 487-373, Goiana - PE, 55900-000, Brasil",
        "name": "104112 n161 anselmo"
      },
      "type": "Feature"
    },
    {
      "geometry": {
        "coordinates": [
          -39.2770498,
          -7.2228303
        ],
        "type": "Point"
      },
      "properties": {
        "name": "p47 andressa lima n170 frente 157"
      },
      "type": "Feature"
    },
    {
      "geometry": {
        "coordinates": [
          -35.967238099999996,
          -8.301635899999999
        ],
        "type": "Point"
      },
      "properties": {
        "address": "Assistência técnica em prensa térmica, Pipoqueira elétrica máquina de algodão doce - R. do Vassoural, n°965 - A, Caruaru - PE, 55028-400, Brasil",
        "name": "137791"
      },
      "type": "Feature"
    },
    {
      "geometry": {
        "coordinates": [
          -35.9794377,
          -8.2898231
        ],
        "type": "Point"
      },
      "properties": {
        "name": "129674"
      },
      "type": "Feature"
    },
    {
      "geometry": {
        "coordinates": [
          -35.985600399999996,
          -8.2765073
        ],
        "type": "Point"
      },
      "properties": {
        "address": "R. Macaparana, 124 - Jardim Boa Vista, Caruaru - PE, 55038-000, Brasil",
        "name": "123467"
      },
      "type": "Feature"
    },
    {
      "geometry": {
        "coordinates": [
          -35.002696,
          -7.5573888
        ],
        "type": "Point"
      },
      "properties": {
        "address": "Lídia Estética Facial - R. Nova, 80 - Jardim Nova Esperanca, Goiana - PE, 55900-000, Brasil",
        "name": "120285"
      },
      "type": "Feature"
    },
    {
      "geometry": {
        "coordinates": [
          -35.934236,
          -8.276026
        ],
        "type": "Point"
      },
      "properties": {
        "address": "R. Vinte Seis Fevereiro, 86 - Salgado, Caruaru - PE, 55038-665, Brasil",
        "name": "132875"
      },
      "type": "Feature"
    },
    {
      "geometry": {
        "coordinates": [
          -35.558938399999995,
          -8.201400399999999
        ],
        "type": "Point"
      },
      "properties": {
        "address": "R. Firmino Batista de Oliveira, 1-2 - Prado, Gravatá - PE, 55642-310, Brasil",
        "name": "105085"
      },
      "type": "Feature"
    },
    {
      "geometry": {
        "coordinates": [
          -35.565038099999995,
          -8.2129164
        ],
        "type": "Point"
      },
      "properties": {
        "address": "R. Padre Augusto Soares, 408 - Bairro Novo, Gravatá - PE, 55643-390, Brasil",
        "name": "126930"
      },
      "type": "Feature"
    },
    {
      "geometry": {
        "coordinates": [
          -34.9988084,
          -7.5661092
        ],
        "type": "Point"
      },
      "properties": {
        "address": "Av. São Luiz, 101 - Zona Res. 07, Goiana - PE, 55900-000, Brasil",
        "name": "136220"
      },
      "type": "Feature"
    },
    {
      "geometry": {
        "coordinates": [
          -39.2956465,
          -7.2384267
        ],
        "type": "Point"
      },
      "properties": {
        "name": "l15 rogerio ferreira n852 viz n856"
      },
      "type": "Feature"
    },
    {
      "geometry": {
        "coordinates": [
          -35.4435224,
          -7.8885324
        ],
        "type": "Point"
      },
      "properties": {
        "address": "Brasil",
        "name": "143289"
      },
      "type": "Feature"
    },
    {
      "geometry": {
        "coordinates": [
          -35.9417,
          -8.2863011
        ],
        "type": "Point"
      },
      "properties": {
        "address": "R. Lindalva Alves de Jesus, 76 - Indianópolis, Caruaru - PE, 55027-165, Brasil",
        "name": "143161"
      },
      "type": "Feature"
    },
    {
      "geometry": {
        "coordinates": [
          -35.948673899999996,
          -8.4548585
        ],
        "type": "Point"
      },
      "properties": {
        "address": "R. Maria do Carmo L. Correia e Sá, 3, Agrestina - PE, 55495-000, Brasil",
        "name": "134004"
      },
      "type": "Feature"
    },
    {
      "geometry": {
        "coordinates": [
          -35.9849396,
          -8.2777633
        ],
        "type": "Point"
      },
      "properties": {
        "address": "R. Dalva de Oliveira, 35 - João Mota, Caruaru - PE, 55010-150, Brasil",
        "name": "137453"
      },
      "type": "Feature"
    },
    {
      "geometry": {
        "coordinates": [
          -35.5550345,
          -8.1970038
        ],
        "type": "Point"
      },
      "properties": {
        "address": "R. da Esperança, 473 - Santo Antonio, Gravatá - PE, 55642-530, Brasil",
        "name": "128525"
      },
      "type": "Feature"
    },
    {
      "geometry": {
        "coordinates": [
          -39.4264572,
          -7.2216239
        ],
        "type": "Point"
      },
      "properties": {
        "name": "j11 xx"
      },
      "type": "Feature"
    },
    {
      "geometry": {
        "coordinates": [
          -35.3901507,
          -7.9509720999999995
        ],
        "type": "Point"
      },
      "properties": {
        "name": "D camiao 2"
      },
      "type": "Feature"
    },
    {
      "geometry": {
        "coordinates": [
          -35.572689499999996,
          -8.211208599999999
        ],
        "type": "Point"
      },
      "properties": {
        "address": "R. Conselheiro Firmino Cabral de Andrade, 76 - Cruzeiro, Gravatá - PE, Brasil",
        "name": "141605"
      },
      "type": "Feature"
    },
    {
      "geometry": {
        "coordinates": [
          -35.232126,
          -7.5955379999999995
        ],
        "type": "Point"
      },
      "properties": {
        "name": "136757"
      },
      "type": "Feature"
    },
    {
      "geometry": {
        "coordinates": [
          -35.462250499999996,
          -8.2398454
        ],
        "type": "Point"
      },
      "properties": {
        "address": "Chã Grande - PE, 55636-000, Brasil",
        "name": "121607"
      },
      "type": "Feature"
    },
    {
      "geometry": {
        "coordinates": [
          -35.976131599999995,
          -8.301306199999999
        ],
        "type": "Point"
      },
      "properties": {
        "name": "143186"
      },
      "type": "Feature"
    },
    {
      "geometry": {
        "coordinates": [
          -35.0127446,
          -7.5587335
        ],
        "type": "Point"
      },
      "properties": {
        "address": "Lokal Mercadinho Paraíba, Brasil",
        "name": "132740"
      },
      "type": "Feature"
    },
    {
      "geometry": {
        "coordinates": [
          -35.299557,
          -7.9364859999999995
        ],
        "type": "Point"
      },
      "properties": {
        "name": "133721"
      },
      "type": "Feature"
    },
    {
      "geometry": {
        "coordinates": [
          -35.0892117,
          -7.786766399999999
        ],
        "type": "Point"
      },
      "properties": {
        "address": "R. Paulista, 1964, Araçoiaba - PE, 53690-000, Brasil",
        "name": "138887 n1964 keli"
      },
      "type": "Feature"
    },
    {
      "geometry": {
        "coordinates": [
          -39.304114,
          -7.2028039999999995
        ],
        "type": "Point"
      },
      "properties": {
        "address": "R. Mal. Mascarenhas de Morais - Juvêncio Santana, Juazeiro do Norte - CE, Brasil",
        "name": "l90 amanda da silua n245"
      },
      "type": "Feature"
    },
    {
      "geometry": {
        "coordinates": [
          -35.5839722,
          -7.9805947999999995
        ],
        "type": "Point"
      },
      "properties": {
        "address": "R. Juviniano F. Santana, 18, Passira - PE, 55650-000, Brasil",
        "name": "122954 n136 rosagila"
      },
      "type": "Feature"
    },
    {
      "geometry": {
        "coordinates": [
          0.0,
          0.0
        ],
        "type": "Point"
      },
      "properties": {
        "address": "PE-089, São Vicente Férrer - PE, 55860-000, Brasil",
        "name": "142205"
      },
      "type": "Feature"
    },
    {
      "geometry": {
        "coordinates": [
          -39.3791175,
          -7.2412049
        ],
        "type": "Point"
      },
      "properties": {
        "name": "c8 maria vandinha n19"
      },
      "type": "Feature"
    },
    {
      "geometry": {
        "coordinates": [
          -35.860876999999995,
          -8.135346
        ],
        "type": "Point"
      },
      "properties": {
        "name": "128250"
      },
      "type": "Feature"
    },
    {
      "geometry": {
        "coordinates": [
          -35.942973099999996,
          -8.2857296
        ],
        "type": "Point"
      },
      "properties": {
        "address": "R. Alda Rosa, 40 - Dep. Jose Antonio Liberato, Caruaru - PE, 55027-200, Brasil",
        "name": "143157"
      },
      "type": "Feature"
    },
    {
      "geometry": {
        "coordinates": [
          -39.3783722,
          -7.241017299999999
        ],
        "type": "Point"
      },
      "properties": {
        "name": "c4 francisca  n60 f61"
      },
      "type": "Feature"
    },
    {
      "geometry": {
        "coordinates": [
          -35.7679502,
          -7.8599266
        ],
        "type": "Point"
      },
      "properties": {
        "address": "R. Princesa Isabel, 58 - Coqueiro, Surubim - PE, 55750-000, Brasil",
        "name": "142287"
      },
      "type": "Feature"
    },
    {
      "geometry": {
        "coordinates": [
          -35.2303794,
          -7.606864099999999
        ],
        "type": "Point"
      },
      "properties": {
        "address": "R. Manoel Ferreira, 32, Aliança - PE, 55890-000, Brasil",
        "name": "117028"
      },
      "type": "Feature"
    },
    {
      "geometry": {
        "coordinates": [
          -35.5715752,
          -8.2021914
        ],
        "type": "Point"
      },
      "properties": {
        "address": "R. Dom Pedro II, 2-130 - Centro, Gravatá - PE, 55641-045, Brasil",
        "name": "112547 dona maria n19"
      },
      "type": "Feature"
    },
    {
      "geometry": {
        "coordinates": [
          0.0,
          0.0
        ],
        "type": "Point"
      },
      "properties": {
        "address": "R. Padre Cícero, 265-205 - Santo Antonio, Gravatá - PE, 55642-620, Brasil",
        "name": "105438"
      },
      "type": "Feature"
    },
    {
      "geometry": {
        "coordinates": [
          0.0,
          0.0
        ],
        "type": "Point"
      },
      "properties": {
        "address": "R. Dr. Oscár Veloso, 265-259 - Cel. Maranhão, Timbaúba - PE, 55870-000, Brasil",
        "name": "145918"
      },
      "type": "Feature"
    },
    {
      "geometry": {
        "coordinates": [
          -39.316820799999995,
          -7.2043291
        ],
        "type": "Point"
      },
      "properties": {
        "address": "Casa do Frango - R. São Paulo, 528 - Centro, Juazeiro do Norte - CE, 63010-000, Brasil",
        "name": "p52 suyane alves n01"
      },
      "type": "Feature"
    },
    {
      "geometry": {
        "coordinates": [
          -39.3002634,
          -7.2160237
        ],
        "type": "Point"
      },
      "properties": {
        "address": "R. Valdomiro Ribeiro, 32 - Timbaúba, Juazeiro do Norte - CE, 63028-200, Brasil",
        "name": "l43 leu de sousa n31 v35"
      },
      "type": "Feature"
    },
    {
      "geometry": {
        "coordinates": [
          -35.3086513,
          -7.5140812
        ],
        "type": "Point"
      },
      "properties": {
        "address": "Alameda da Itec, 59 - Mocosinho, Timbaúba - PE, 55870-000, Brasil",
        "name": "132242 n79 m paula"
      },
      "type": "Feature"
    },
    {
      "geometry": {
        "coordinates": [
          -34.8934833,
          -7.7726128999999995
        ],
        "type": "Point"
      },
      "properties": {
        "address": "R. Sossego, 88 - Espinheiro, Itapissuma - PE, 53700-000, Brasil",
        "name": "135647"
      },
      "type": "Feature"
    },
    {
      "geometry": {
        "coordinates": [
          -35.1005694,
          -7.6587543
        ],
        "type": "Point"
      },
      "properties": {
        "address": "Jamatattoo_ - R. da Uniao, 35 - Centro, Itaquitinga - PE, 55950-000, Brasil",
        "name": "135181"
      },
      "type": "Feature"
    },
    {
      "geometry": {
        "coordinates": [
          -35.5768935,
          -8.2015437
        ],
        "type": "Point"
      },
      "properties": {
        "address": "Vr modas - R. Luiz Gonzaga, 44, Gravatá - PE, 55641, Brasil",
        "name": "99892"
      },
      "type": "Feature"
    },
    {
      "geometry": {
        "coordinates": [
          -39.3847726,
          -7.2522820999999995
        ],
        "type": "Point"
      },
      "properties": {
        "name": "d4 m veronice n92"
      },
      "type": "Feature"
    },
    {
      "geometry": {
        "coordinates": [
          -35.4615359,
          -8.2382644
        ],
        "type": "Point"
      },
      "properties": {
        "address": "R. da Amizade, 13, Chã Grande - PE, 55636-000, Brasil",
        "name": "131232"
      },
      "type": "Feature"
    },
    {
      "geometry": {
        "coordinates": [
          -35.969981,
          -8.301537
        ],
        "type": "Point"
      },
      "properties": {
        "address": "R. Asa Branca, 83 - Vassoural, Caruaru - PE, 55030-165, Brasil",
        "name": "141265"
      },
      "type": "Feature"
    },
    {
      "geometry": {
        "coordinates": [
          -35.5760587,
          -8.1980234
        ],
        "type": "Point"
      },
      "properties": {
        "address": "R. Issuero Pulino Gores do Nasrent, 116 - Norte, Gravatá - PE, Brasil",
        "name": "126820"
      },
      "type": "Feature"
    },
    {
      "geometry": {
        "coordinates": [
          -35.2937705,
          -7.9333469999999995
        ],
        "type": "Point"
      },
      "properties": {
        "name": "136369"
      },
      "type": "Feature"
    },
    {
      "geometry": {
        "coordinates": [
          -35.3846531,
          -7.9499907
        ],
        "type": "Point"
      },
      "properties": {
        "address": "R. São José, 153, Feira Nova - PE, 55715-000, Brasil",
        "name": "123885 N11 Josenilda"
      },
      "type": "Feature"
    },
    {
      "geometry": {
        "coordinates": [
          -34.8977528,
          -7.6042005999999995
        ],
        "type": "Point"
      },
      "properties": {
        "address": "Goiana - PE, 55900-000, Brasil",
        "name": "132043"
      },
      "type": "Feature"
    },
    {
      "geometry": {
        "coordinates": [
          -35.663571,
          -8.02662
        ],
        "type": "Point"
      },
      "properties": {
        "name": "136180 dona luzinete"
      },
      "type": "Feature"
    },
    {
      "geometry": {
        "coordinates": [
          -39.4184957,
          -7.2301774
        ],
        "type": "Point"
      },
      "properties": {
        "name": "i52 pricila novo indereso n489"
      },
      "type": "Feature"
    },
    {
      "geometry": {
        "coordinates": [
          -35.0103933,
          -7.5584348
        ],
        "type": "Point"
      },
      "properties": {
        "address": "Goiana - PE, 55900-000, Brasil",
        "name": "142697"
      },
      "type": "Feature"
    },
    {
      "geometry": {
        "coordinates": [
          -39.3867045,
          -7.2510102
        ],
        "type": "Point"
      },
      "properties": {
        "name": "d38 marcia bento n34"
      },
      "type": "Feature"
    },
    {
      "geometry": {
        "coordinates": [
          -39.418776,
          -7.245155199999999
        ],
        "type": "Point"
      },
      "properties": {
        "name": "h17 antonio iago"
      },
      "type": "Feature"
    },
    {
      "geometry": {
        "coordinates": [
          -35.3283584,
          -7.7251484999999995
        ],
        "type": "Point"
      },
      "properties": {
        "address": "R. Antonio Francisco de Lira, 41, Buenos Aires - PE, 55845-000, Brasil",
        "name": "143907"
      },
      "type": "Feature"
    },
    {
      "geometry": {
        "coordinates": [
          -35.976161399999995,
          -8.3006092
        ],
        "type": "Point"
      },
      "properties": {
        "name": "129666"
      },
      "type": "Feature"
    },
    {
      "geometry": {
        "coordinates": [
          -35.1003605,
          -7.6626686
        ],
        "type": "Point"
      },
      "properties": {
        "name": "143584"
      },
      "type": "Feature"
    },
    {
      "geometry": {
        "coordinates": [
          -35.0844283,
          -7.7865272999999995
        ],
        "type": "Point"
      },
      "properties": {
        "address": "R. Trinta e Um de Março, 1 - Centro, Araçoiaba - PE, 53690-000, Brasil",
        "name": "122766 rolerto"
      },
      "type": "Feature"
    },
    {
      "geometry": {
        "coordinates": [
          -35.5699667,
          -8.2155135
        ],
        "type": "Point"
      },
      "properties": {
        "address": "Rua Horácio Luiz de França, 55643-032, Gravatá - PE, Brasil",
        "name": "139438"
      },
      "type": "Feature"
    },
    {
      "geometry": {
        "coordinates": [
          -35.758699199999995,
          -8.3673366
        ],
        "type": "Point"
      },
      "properties": {
        "address": "Escola Municipal Miguel Arraes - Tv. Terceira Pedro Jordão, Camocim de São Félix - PE, 55665-000, Brasil",
        "name": "120754"
      },
      "type": "Feature"
    },
    {
      "geometry": {
        "coordinates": [
          -39.396964499999996,
          -7.225744499999999
        ],
        "type": "Point"
      },
      "properties": {
        "address": "R. Campos Sáles - São Miguel, Crato - CE, Brasil",
        "name": "e80 jackeline euzebio n407"
      },
      "type": "Feature"
    },
    {
      "geometry": {
        "coordinates": [
          -35.1057633,
          -8.1171961
        ],
        "type": "Point"
      },
      "properties": {
        "address": "R. Santos Dumont, 250b - Centro, Moreno - PE, 53690-000, Brasil",
        "name": "127331"
      },
      "type": "Feature"
    },
    {
      "geometry": {
        "coordinates": [
          0.0,
          0.0
        ],
        "type": "Point"
      },
      "properties": {
        "address": "R. Augusto dos Anjos, 10 - Norte, Gravatá - PE, 55640-000, Brasil",
        "name": "104920"
      },
      "type": "Feature"
    },
    {
      "geometry": {
        "coordinates": [
          -35.3235317,
          -7.6601173
        ],
        "type": "Point"
      },
      "properties": {
        "name": "133976 n115 andrea"
      },
      "type": "Feature"
    },
    {
      "geometry": {
        "coordinates": [
          -35.1892455,
          -8.1061936
        ],
        "type": "Point"
      },
      "properties": {
        "address": "R. Antonio V V De Andrade, 159 - Bonanca, Moreno - PE, 54800-000, Brasil",
        "name": "136118"
      },
      "type": "Feature"
    },
    {
      "geometry": {
        "coordinates": [
          -35.198523,
          -8.111547
        ],
        "type": "Point"
      },
      "properties": {
        "name": "131140"
      },
      "type": "Feature"
    },
    {
      "geometry": {
        "coordinates": [
          -35.992352499999996,
          -8.2808718
        ],
        "type": "Point"
      },
      "properties": {
        "address": "R. Paulo Pinheiro da Silva, 70 - Kennedy, Caruaru - PE, 55036-250, Brasil",
        "name": "141253"
      },
      "type": "Feature"
    },
    {
      "geometry": {
        "coordinates": [
          -39.435306499999996,
          -7.249428399999999
        ],
        "type": "Point"
      },
      "properties": {
        "name": "i11 lucivam n 25"
      },
      "type": "Feature"
    },
    {
      "geometry": {
        "coordinates": [
          0.0,
          0.0
        ],
        "type": "Point"
      },
      "properties": {
        "address": "R. Silveira Martins, 522-532 - Petrópolis, Caruaru - PE, 55030-310, Brasil",
        "name": "120940"
      },
      "type": "Feature"
    },
    {
      "geometry": {
        "coordinates": [
          -35.310924899999996,
          -7.8374716
        ],
        "type": "Point"
      },
      "properties": {
        "address": "R. Dezenove, 30-32, Lagoa do Carro - PE, 55820-000, Brasil",
        "name": "132986 n161 camila"
      },
      "type": "Feature"
    },
    {
      "geometry": {
        "coordinates": [
          -35.9812009,
          -8.2949144
        ],
        "type": "Point"
      },
      "properties": {
        "name": "129658"
      },
      "type": "Feature"
    },
    {
      "geometry": {
        "coordinates": [
          -35.572094899999996,
          -8.2040911
        ],
        "type": "Point"
      },
      "properties": {
        "address": "Associação Comercial Empresarial de Gravatá - R. Sérgio Lorêto, 365 - Centro, Gravatá - PE, 55641-110, Brasil",
        "name": "108001"
      },
      "type": "Feature"
    },
    {
      "geometry": {
        "coordinates": [
          -35.7614191,
          -7.8490287
        ],
        "type": "Point"
      },
      "properties": {
        "address": "Multiplus Destinos Viagens e turismo - Rua João Batista 20 Rua Almirante Antonio Heráclito, Surubim - PE, 55750-000, Brasil",
        "name": "141329 pega"
      },
      "type": "Feature"
    },
    {
      "geometry": {
        "coordinates": [
          -35.5767117,
          -8.1949349
        ],
        "type": "Point"
      },
      "properties": {
        "address": "Marcos Motos Aluguel de Quadricoclos em Gravatá - R. Est. Luciana Félix da Silva - Gravatá, PE, Brasil",
        "name": "115278"
      },
      "type": "Feature"
    },
    {
      "geometry": {
        "coordinates": [
          -35.576179499999995,
          -8.200376499999999
        ],
        "type": "Point"
      },
      "properties": {
        "address": "Miguel Do Gás - Maria Alencar de Lima - Santo Antonio, Gravatá - PE, 55640-000, Brasil",
        "name": "131395"
      },
      "type": "Feature"
    },
    {
      "geometry": {
        "coordinates": [
          -39.2995496,
          -7.2145562
        ],
        "type": "Point"
      },
      "properties": {
        "address": "R. Teodomiro Rocha, 1214 - Pio XII, Juazeiro do Norte - CE, Brasil",
        "name": "l37 maria de lurdes n1209 fre n1218"
      },
      "type": "Feature"
    },
    {
      "geometry": {
        "coordinates": [
          -35.3285396,
          -7.7253042
        ],
        "type": "Point"
      },
      "properties": {
        "address": "R. Antonio Francisco de Lira, 47, Buenos Aires - PE, 55845-000, Brasil",
        "name": "140081"
      },
      "type": "Feature"
    },
    {
      "geometry": {
        "coordinates": [
          -39.4261474,
          -7.222041
        ],
        "type": "Point"
      },
      "properties": {
        "name": "j12 jose alberto n4"
      },
      "type": "Feature"
    },
    {
      "geometry": {
        "coordinates": [
          -35.934254599999996,
          -8.2752994
        ],
        "type": "Point"
      },
      "properties": {
        "name": "123431"
      },
      "type": "Feature"
    },
    {
      "geometry": {
        "coordinates": [
          -35.578669399999995,
          -8.2017481
        ],
        "type": "Point"
      },
      "properties": {
        "name": "133071"
      },
      "type": "Feature"
    },
    {
      "geometry": {
        "coordinates": [
          -35.38104,
          -7.950482999999999
        ],
        "type": "Point"
      },
      "properties": {
        "name": "144575"
      },
      "type": "Feature"
    },
    {
      "geometry": {
        "coordinates": [
          -35.0101517,
          -7.563714999999999
        ],
        "type": "Point"
      },
      "properties": {
        "address": "Kampek Comida Oriental - R. do Arame, Goiana - PE, 55900-000, Brasil",
        "name": "140032 n90 moço"
      },
      "type": "Feature"
    },
    {
      "geometry": {
        "coordinates": [
          -39.428247899999995,
          -7.2254599
        ],
        "type": "Point"
      },
      "properties": {
        "name": "j1 maria de fatima n12"
      },
      "type": "Feature"
    },
    {
      "geometry": {
        "coordinates": [
          -35.312135399999995,
          -7.8360527
        ],
        "type": "Point"
      },
      "properties": {
        "address": "R. Treze, 330, Lagoa do Carro - PE, 55820-000, Brasil",
        "name": "132990"
      },
      "type": "Feature"
    },
    {
      "geometry": {
        "coordinates": [
          -35.9456534,
          -8.4527337
        ],
        "type": "Point"
      },
      "properties": {
        "address": "R. Marciano Lopes, 104, Agrestina - PE, 55495-000, Brasil",
        "name": "136821"
      },
      "type": "Feature"
    },
    {
      "geometry": {
        "coordinates": [
          -35.3940161,
          -7.946959199999999
        ],
        "type": "Point"
      },
      "properties": {
        "address": "R. Severino Herculano, 4, Feira Nova - PE, 55715-000, Brasil",
        "name": "132795 V9 Jessica"
      },
      "type": "Feature"
    },
    {
      "geometry": {
        "coordinates": [
          -35.3126499,
          -7.8386885
        ],
        "type": "Point"
      },
      "properties": {
        "address": "R. Treze, 41, Lagoa do Carro - PE, 55820-000, Brasil",
        "name": "144400"
      },
      "type": "Feature"
    },
    {
      "geometry": {
        "coordinates": [
          -35.3272794,
          -7.7221692
        ],
        "type": "Point"
      },
      "properties": {
        "address": "Comercial Fontes, Buenos Aires - PE, Brasil",
        "name": "141398"
      },
      "type": "Feature"
    },